{
"type": "FeatureCollection",
"name": "Bases",
"features": [
{ "type": "Feature", "properties": { "Name": "Antonio Bautista Air Base", "Built": "March 21, 1975", "Location": "Puerto Princesa, Palawan", "Added_to_EDCA": 2014, "Added to EDCA": 2014 }, "geometry": { "type": "Point", "coordinates": [ 118.7587898, 9.7431679 ] } },
{ "type": "Feature", "properties": { "Name": "Cesar Basa Air Base", "Built": "November 1941", "Location": "Floridablanca, Pampanga", "Added_to_EDCA": 2014, "Added to EDCA": 2014 }, "geometry": { "type": "Point", "coordinates": [ 120.4928679, 14.9798483 ] } },
{ "type": "Feature", "properties": { "Name": "Philippine Air Force Brigadier General Benito N Ebuen Air Base", "Built": "1956", "Location": "Mactan, Cebu", "Added_to_EDCA": 2014, "Added to EDCA": 2014 }, "geometry": { "type": "Point", "coordinates": [ 123.965332, 10.310857 ] } },
{ "type": "Feature", "properties": { "Name": "Fort Ramon Magsaysay", "Built": "December 19, 1955", "Location": "Nueva Ecija", "Added_to_EDCA": 2014, "Added to EDCA": 2014 }, "geometry": { "type": "Point", "coordinates": [ 121.0832341, 15.4403681 ] } },
{ "type": "Feature", "properties": { "Name": "Lumbia Airfield", "Built": "1930s", "Location": "Barangay Lumbia, Cagayan de Oro", "Added_to_EDCA": 2014, "Added to EDCA": 2014 }, "geometry": { "type": "Point", "coordinates": [ 124.611142, 8.4059312 ] } },
{ "type": "Feature", "properties": { "Name": "Naval Station Narciso del Rosario", "Built": null, "Location": "Brgy. 5, Balabac, Palawan", "Added_to_EDCA": 2023, "Added to EDCA": 2023 }, "geometry": { "type": "Point", "coordinates": [ 117.0648369, 7.9862001 ] } },
{ "type": "Feature", "properties": { "Name": "Camp. Melchor Dela Cruz", "Built": "1936", "Location": "Barangay Upi in Gamu, Isabela", "Added_to_EDCA": 2023, "Added to EDCA": 2023 }, "geometry": { "type": "Point", "coordinates": [ 121.831802, 17.082529 ] } },
{ "type": "Feature", "properties": { "Name": "Cagayan North International Airport", "Built": "2014", "Location": "Lal-lo, Cagayan", "Added_to_EDCA": 2023, "Added to EDCA": 2023 }, "geometry": { "type": "Point", "coordinates": [ 121.7476453, 18.1810066 ] } },
{ "type": "Feature", "properties": { "Name": "Naval Base Camilo Osias", "Built": null, "Location": "Santa Ana, Cagayan", "Added_to_EDCA": 2023, "Added to EDCA": 2023 }, "geometry": { "type": "Point", "coordinates": [ 122.149152, 18.5071945 ] } }
]
}
